[
  {
    "id": "evt-001",
    "title": "益子陶器市 2025春",
    "description": "毎年春と秋に開催される日本最大級の陶器市。約500のテントが並び、伝統的な益子焼から現代的な作品まで幅広く販売されます。",
    "startDate": "2025-04-26T00:00:00+09:00",
    "endDate": "2025-05-05T00:00:00+09:00",
    "venue": "益子町内各所",
    "address": "栃木県芳賀郡益子町",
    "latitude": 36.4672,
    "longitude": 140.0981,
    "region": "kanto",
    "prefecture": "栃木県",
    "url": "https://mashiko-kankou.org/ceramics_fair/",
    "kilnIds": ["mashikoyaki"],
    "tags": ["陶器市"]
  },
  {
    "id": "evt-002",
    "title": "有田陶器市",
    "description": "400年以上の歴史を持つ日本最古の陶器市。有田町一帯が会場となり、約130万人が訪れる一大イベントです。",
    "startDate": "2025-04-29T00:00:00+09:00",
    "endDate": "2025-05-05T00:00:00+09:00",
    "venue": "有田町内各所",
    "address": "佐賀県西松浦郡有田町",
    "latitude": 33.1847,
    "longitude": 129.8544,
    "region": "kyushu_okinawa",
    "prefecture": "佐賀県",
    "url": "https://www.arita-toukiichi.or.jp/",
    "kilnIds": ["aritayaki"],
    "tags": ["陶器市"]
  },
  {
    "id": "evt-003",
    "title": "瀬戸物祭り",
    "description": "日本三大陶器祭りの一つ。瀬戸市内に200以上の露店が並び、瀬戸焼の廉売市やせともの人形の展示などが行われます。",
    "startDate": "2025-09-13T00:00:00+09:00",
    "endDate": "2025-09-14T00:00:00+09:00",
    "venue": "瀬戸市中心部・窯神神社周辺",
    "address": "愛知県瀬戸市",
    "latitude": 35.2234,
    "longitude": 137.0836,
    "region": "chubu",
    "prefecture": "愛知県",
    "url": "https://www.setomono-matsuri.com/",
    "kilnIds": ["setoyaki"],
    "tags": ["陶器市"]
  },
  {
    "id": "evt-004",
    "title": "信楽陶器まつり",
    "description": "信楽焼の里で開催される陶器市。たぬきの置物で有名な信楽焼の窯元が一堂に会し、特価品が並びます。",
    "startDate": "2025-10-11T00:00:00+09:00",
    "endDate": "2025-10-13T00:00:00+09:00",
    "venue": "信楽町内各所",
    "address": "滋賀県甲賀市信楽町",
    "latitude": 34.9317,
    "longitude": 136.0508,
    "region": "kinki",
    "prefecture": "滋賀県",
    "kilnIds": ["shigarakiyaki"],
    "tags": ["陶器市"]
  },
  {
    "id": "evt-005",
    "title": "九谷茶碗まつり",
    "description": "石川県の九谷焼の産地で開催される陶器市。色絵磁器の名品から日用食器まで、約50店舗が出店します。",
    "startDate": "2025-05-03T00:00:00+09:00",
    "endDate": "2025-05-05T00:00:00+09:00",
    "venue": "能美市九谷陶芸村",
    "address": "石川県能美市泉台町",
    "latitude": 36.4262,
    "longitude": 136.4903,
    "region": "chubu",
    "prefecture": "石川県",
    "kilnIds": ["kutaniyaki"],
    "tags": ["陶器市"]
  },
  {
    "id": "evt-006",
    "title": "萩焼まつり",
    "description": "萩焼の窯元が集結する年に一度の陶器市。茶陶として名高い萩焼を手頃な価格で購入できるチャンスです。",
    "startDate": "2025-05-01T00:00:00+09:00",
    "endDate": "2025-05-05T00:00:00+09:00",
    "venue": "萩市民体育館周辺",
    "address": "山口県萩市",
    "latitude": 34.4075,
    "longitude": 131.399,
    "region": "chugoku",
    "prefecture": "山口県",
    "kilnIds": ["hagiyaki"],
    "tags": ["陶器市"]
  },
  {
    "id": "evt-007",
    "title": "砥部焼まつり",
    "description": "愛媛県の砥部焼の窯元による陶器市。白磁に藍色の絵付けが特徴的な砥部焼を産地価格で購入できます。",
    "startDate": "2025-04-19T00:00:00+09:00",
    "endDate": "2025-04-20T00:00:00+09:00",
    "venue": "砥部町陶街道ゆとり公園",
    "address": "愛媛県伊予郡砥部町",
    "latitude": 33.7478,
    "longitude": 132.7919,
    "region": "shikoku",
    "prefecture": "愛媛県",
    "kilnIds": ["tobeyaki"],
    "tags": ["陶器市"]
  },
  {
    "id": "evt-008",
    "title": "陶芸ワークショップ in 笠間",
    "description": "笠間焼の窯元で開催される体験型ワークショップ。手びねりやろくろ体験を通じて、陶芸の魅力を体感できます。",
    "startDate": "2025-06-14T09:00:00+09:00",
    "endDate": "2025-06-15T17:00:00+09:00",
    "venue": "笠間工芸の丘",
    "address": "茨城県笠間市笠間",
    "latitude": 36.3458,
    "longitude": 140.2467,
    "region": "kanto",
    "prefecture": "茨城県",
    "kilnIds": ["kasamayaki"],
    "tags": ["ワークショップ"]
  }
]
